[
  {
    "ID": 1,
    "Name": "Gare Saint-Roch",
    "City": "Montpellier",
    "Lat": 43.605313,
    "Lng": 3.880934,
    "CB": 1,
    "SlotsTotal": 24,
    "BikesAvailable": 16,
    "SlotsAvailable": 8
  },
  {
    "ID": 2,
    "Name": null,
    "City": "Montpellier",
    "Lat": 43.608148,
    "Lng": 3.878778,
    "CB": 1,
    "SlotsTotal": 24,
    "BikesAvailable": 7,
    "SlotsAvailable": 17
  },
  {
    "ID": 3,
    "Name": "Esplanade",
    "City": "Montpellier",
    "Lat": 43.609478,
    "Lng": 3.881293,
    "CB": 1,
    "SlotsTotal": 32,
    "BikesAvailable": 10,
    "SlotsAvailable": 22
  },
  {
    "ID": 4,
    "Name": null,
    "City": "Montpellier",
    "Lat": 43.599088,
    "Lng": 3.894866,
    "CB": 1,
    "SlotsTotal": 16,
    "BikesAvailable": 5,
    "SlotsAvailable": 11
  },
  {
    "ID": 5,
    "Name": "Corum",
    "City": "Montpellier",
    "Lat": 43.613989,
    "Lng": 3.8816,
    "CB": 1,
    "SlotsTotal": 16,
    "BikesAvailable": 8,
    "SlotsAvailable": 8
  },
  {
    "ID": 6,
    "Name": "Albert 1er",
    "City": "Montpellier",
    "Lat": 43.6162,
    "Lng": 3.874385,
    "CB": 1,
    "SlotsTotal": 24,
    "BikesAvailable": 4,
    "SlotsAvailable": 20
  },
  {
    "ID": 7,
    "Name": "Foch",
    "City": "Montpellier",
    "Lat": 43.610989,
    "Lng": 3.873345,
    "CB": 0,
    "SlotsTotal": 8,
    "BikesAvailable": 1,
    "SlotsAvailable": 7
  },
  {
    "ID": 8,
    "Name": "Halles Castellane",
    "City": "Montpellier",
    "Lat": 43.609935,
    "Lng": 3.877208,
    "CB": 0,
    "SlotsTotal": 16,
    "BikesAvailable": 9,
    "SlotsAvailable": 7
  },
  {
    "ID": 9,
    "Name": "Observatoire",
    "City": "Montpellier",
    "Lat": 43.606081,
    "Lng": 3.876931,
    "CB": 1,
    "SlotsTotal": 8,
    "BikesAvailable": 1,
    "SlotsAvailable": 7
  },
  {
    "ID": 10,
    "Name": "Rondelet",
    "City": "Montpellier",
    "Lat": 43.603038,
    "Lng": 3.875796,
    "CB": 1,
    "SlotsTotal": 16,
    "BikesAvailable": 3,
    "SlotsAvailable": 13
  },
  {
    "ID": 11,
    "Name": "Plan Cabanes",
    "City": "Montpellier",
    "Lat": 43.608491,
    "Lng": 3.868389,
    "CB": 1,
    "SlotsTotal": 12,
    "BikesAvailable": 8,
    "SlotsAvailable": 4
  },
  {
    "ID": 12,
    "Name": "Boutonnet",
    "City": "Montpellier",
    "Lat": 43.622629,
    "Lng": 3.868375,
    "CB": 1,
    "SlotsTotal": 12,
    "BikesAvailable": 4,
    "SlotsAvailable": 8
  },
  {
    "ID": 13,
    "Name": "Emile Combes",
    "City": "Montpellier",
    "Lat": 43.616742,
    "Lng": 3.87998,
    "CB": 0,
    "SlotsTotal": 8,
    "BikesAvailable": 6,
    "SlotsAvailable": 2
  },
  {
    "ID": 14,
    "Name": "Beaux-Arts",
    "City": "Montpellier",
    "Lat": 43.616698,
    "Lng": 3.884981,
    "CB": 0,
    "SlotsTotal": 8,
    "BikesAvailable": 6,
    "SlotsAvailable": 2
  },
  {
    "ID": 15,
    "Name": "Les Aubes",
    "City": "Montpellier",
    "Lat": 43.618692,
    "Lng": 3.893844,
    "CB": 0,
    "SlotsTotal": 8,
    "BikesAvailable": 6,
    "SlotsAvailable": 2
  },
  {
    "ID": 16,
    "Name": "Antigone centre",
    "City": "Montpellier",
    "Lat": 43.607942,
    "Lng": 3.890634,
    "CB": 1,
    "SlotsTotal": 16,
    "BikesAvailable": 1,
    "SlotsAvailable": 15
  },
  {
    "ID": 17,
    "Name": null,
    "City": "Montpellier",
    "Lat": 43.608218,
    "Lng": 3.89314,
    "CB": 1,
    "SlotsTotal": 16,
    "BikesAvailable": 5,
    "SlotsAvailable": 11
  },
  {
    "ID": 18,
    "Name": "Nombre d'Or",
    "City": "Montpellier",
    "Lat": 43.607859,
    "Lng": 3.886644,
    "CB": 1,
    "SlotsTotal": 16,
    "BikesAvailable": 1,
    "SlotsAvailable": 15
  },
  {
    "ID": 19,
    "Name": "Louis Blanc",
    "City": "Montpellier",
    "Lat": 43.614642,
    "Lng": 3.877648,
    "CB": 1,
    "SlotsTotal": 16,
    "BikesAvailable": 1,
    "SlotsAvailable": 15
  },
  {
    "ID": 20,
    "Name": "Gambetta",
    "City": "Montpellier",
    "Lat": 43.607106,
    "Lng": 3.870693,
    "CB": 0,
    "SlotsTotal": 8,
    "BikesAvailable": 7,
    "SlotsAvailable": 1
  },
  {
    "ID": 21,
    "Name": "Port Marianne",
    "City": "Montpellier",
    "Lat": 43.60032,
    "Lng": 3.89851,
    "CB": 1,
    "SlotsTotal": 16,
    "BikesAvailable": 4,
    "SlotsAvailable": 12
  },
  {
    "ID": 22,
    "Name": "Clemenceau",
    "City": "Montpellier",
    "Lat": 43.603487,
    "Lng": 3.872187,
    "CB": 0,
    "SlotsTotal": 16,
    "BikesAvailable": 2,
    "SlotsAvailable": 14
  },
  {
    "ID": 23,
    "Name": "Les Arceaux",
    "City": "Montpellier",
    "Lat": 43.611991,
    "Lng": 3.867157,
    "CB": 1,
    "SlotsTotal": 16,
    "BikesAvailable": 3,
    "SlotsAvailable": 13
  },
  {
    "ID": 24,
    "Name": null,
    "City": "Montpellier",
    "Lat": 43.601143,
    "Lng": 3.884373,
    "CB": 0,
    "SlotsTotal": 8,
    "BikesAvailable": 3,
    "SlotsAvailable": 5
  },
  {
    "ID": 25,
    "Name": "Nouveau Saint-Roch",
    "City": "Montpellier",
    "Lat": 43.599817,
    "Lng": 3.875757,
    "CB": 0,
    "SlotsTotal": 8,
    "BikesAvailable": 1,
    "SlotsAvailable": 7
  },
  {
    "ID": 26,
    "Name": "Renouvier",
    "City": "Montpellier",
    "Lat": 43.603553,
    "Lng": 3.867884,
    "CB": 0,
    "SlotsTotal": 8,
    "BikesAvailable": 0,
    "SlotsAvailable": 8
  },
  {
    "ID": 27,
    "Name": "Odysseum",
    "City": "Montpellier",
    "Lat": 43.603727,
    "Lng": 3.918979,
    "CB": 1,
    "SlotsTotal": 8,
    "BikesAvailable": 5,
    "SlotsAvailable": 3
  },
  {
    "ID": 28,
    "Name": "Saint-Denis",
    "City": "Montpellier",
    "Lat": 43.605021,
    "Lng": 3.875065,
    "CB": 0,
    "SlotsTotal": 8,
    "BikesAvailable": 1,
    "SlotsAvailable": 7
  },
  {
    "ID": 29,
    "Name": "Richter",
    "City": "Montpellier",
    "Lat": 43.603424,
    "Lng": 3.899263,
    "CB": 1,
    "SlotsTotal": 16,
    "BikesAvailable": 9,
    "SlotsAvailable": 7
  },
  {
    "ID": 30,
    "Name": "Charles Flahault",
    "City": "Montpellier",
    "Lat": 43.618762,
    "Lng": 3.865971,
    "CB": 0,
    "SlotsTotal": 8,
    "BikesAvailable": 3,
    "SlotsAvailable": 5
  },
  {
    "ID": 31,
    "Name": "Voltaire",
    "City": "Montpellier",
    "Lat": 43.603767,
    "Lng": 3.888659,
    "CB": 0,
    "SlotsTotal": 8,
    "BikesAvailable": 1,
    "SlotsAvailable": 7
  },
  {
    "ID": 32,
    "Name": null,
    "City": "Montpellier",
    "Lat": 43.59048,
    "Lng": 3.884611,
    "CB": 0,
    "SlotsTotal": 8,
    "BikesAvailable": 7,
    "SlotsAvailable": 1
  },
  {
    "ID": 33,
    "Name": "Garcia Lorca",
    "City": "Montpellier",
    "Lat": 43.590757,
    "Lng": 3.890616,
    "CB": 0,
    "SlotsTotal": 8,
    "BikesAvailable": 3,
    "SlotsAvailable": 5
  },
  {
    "ID": 34,
    "Name": "Saint-Martin",
    "City": "Montpellier",
    "Lat": 43.592262,
    "Lng": 3.885032,
    "CB": 0,
    "SlotsTotal": 8,
    "BikesAvailable": 1,
    "SlotsAvailable": 7
  },
  {
    "ID": 35,
    "Name": "Malbosc",
    "City": "Montpellier",
    "Lat": 43.633679,
    "Lng": 3.832861,
    "CB": 0,
    "SlotsTotal": 8,
    "BikesAvailable": 3,
    "SlotsAvailable": 5
  },
  {
    "ID": 36,
    "Name": "Occitanie",
    "City": "Montpellier",
    "Lat": 43.634242,
    "Lng": 3.849128,
    "CB": 1,
    "SlotsTotal": 32,
    "BikesAvailable": 11,
    "SlotsAvailable": 21
  },
  {
    "ID": 37,
    "Name": "Fac des Sciences",
    "City": "Montpellier",
    "Lat": 43.631432,
    "Lng": 3.861159,
    "CB": 0,
    "SlotsTotal": 24,
    "BikesAvailable": 6,
    "SlotsAvailable": 18
  },
  {
    "ID": 38,
    "Name": "Fac de Lettres",
    "City": "Montpellier",
    "Lat": 43.630665,
    "Lng": 3.87023,
    "CB": 1,
    "SlotsTotal": 28,
    "BikesAvailable": 6,
    "SlotsAvailable": 22
  },
  {
    "ID": 39,
    "Name": "Aiguelongue",
    "City": "Montpellier",
    "Lat": 43.626163,
    "Lng": 3.882492,
    "CB": 0,
    "SlotsTotal": 8,
    "BikesAvailable": 7,
    "SlotsAvailable": 1
  },
  {
    "ID": 40,
    "Name": null,
    "City": "Montpellier",
    "Lat": 43.619701,
    "Lng": 3.883831,
    "CB": 0,
    "SlotsTotal": 8,
    "BikesAvailable": 8,
    "SlotsAvailable": 0
  },
  {
    "ID": 41,
    "Name": null,
    "City": "Montpellier",
    "Lat": 43.639119,
    "Lng": 3.828199,
    "CB": 0,
    "SlotsTotal": 8,
    "BikesAvailable": 3,
    "SlotsAvailable": 5
  },
  {
    "ID": 42,
    "Name": "Marie Caizergues",
    "City": "Montpellier",
    "Lat": 43.619871,
    "Lng": 3.873812,
    "CB": 0,
    "SlotsTotal": 8,
    "BikesAvailable": 4,
    "SlotsAvailable": 4
  },
  {
    "ID": 43,
    "Name": "Du Guesclin",
    "City": "Montpellier",
    "Lat": 43.60598,
    "Lng": 3.882406,
    "CB": 0,
    "SlotsTotal": 24,
    "BikesAvailable": 4,
    "SlotsAvailable": 20
  },
  {
    "ID": 44,
    "Name": "Celleneuve",
    "City": "Montpellier",
    "Lat": 43.61467,
    "Lng": 3.832624,
    "CB": 0,
    "SlotsTotal": 8,
    "BikesAvailable": 4,
    "SlotsAvailable": 4
  },
  {
    "ID": 45,
    "Name": "Jardin de la Lironde",
    "City": "Montpellier",
    "Lat": 43.60585,
    "Lng": 3.911576,
    "CB": 0,
    "SlotsTotal": 8,
    "BikesAvailable": 1,
    "SlotsAvailable": 7
  },
  {
    "ID": 46,
    "Name": null,
    "City": "Montpellier",
    "Lat": 43.621983,
    "Lng": 3.855603,
    "CB": 0,
    "SlotsTotal": 8,
    "BikesAvailable": 3,
    "SlotsAvailable": 5
  },
  {
    "ID": 47,
    "Name": "Place Viala",
    "City": "Montpellier",
    "Lat": 43.616812,
    "Lng": 3.855075,
    "CB": 1,
    "SlotsTotal": 8,
    "BikesAvailable": 3,
    "SlotsAvailable": 5
  },
  {
    "ID": 48,
    "Name": null,
    "City": "Montpellier",
    "Lat": 43.621682,
    "Lng": 3.83477,
    "CB": 1,
    "SlotsTotal": 8,
    "BikesAvailable": 4,
    "SlotsAvailable": 4
  },
  {
    "ID": 49,
    "Name": "Tonnelles",
    "City": "Montpellier",
    "Lat": 43.615155,
    "Lng": 3.839466,
    "CB": 0,
    "SlotsTotal": 8,
    "BikesAvailable": 2,
    "SlotsAvailable": 6
  }
]